{
"type": "FeatureCollection",
"name": "label",
"crs": { "type": "name", "properties": { "name": "urn:ogc:def:crs:OGC:1.3:CRS84" } },
"features": [
{ "type": "Feature", "properties": { "Dist_ID": 11.0, "District": "Nyarugenge", "label": "NG" }, "geometry": { "type": "Point", "coordinates": [ 30.028865368016294, -1.992004702637822 ] } },
{ "type": "Feature", "properties": { "Dist_ID": 12.0, "District": "Gasabo", "label": "GB" }, "geometry": { "type": "Point", "coordinates": [ 30.142212055005114, -1.891447284622662 ] } },
{ "type": "Feature", "properties": { "Dist_ID": 13.0, "District": "Kicukiro", "label": "KK" }, "geometry": { "type": "Point", "coordinates": [ 30.14372498873426, -2.008863626961058 ] } },
{ "type": "Feature", "properties": { "Dist_ID": 21.0, "District": "Nyanza", "label": "NZ" }, "geometry": { "type": "Point", "coordinates": [ 29.793463143168346, -2.335860777745273 ] } },
{ "type": "Feature", "properties": { "Dist_ID": 22.0, "District": "Gisagara", "label": "GG" }, "geometry": { "type": "Point", "coordinates": [ 29.843603392756133, -2.618111835818773 ] } },
{ "type": "Feature", "properties": { "Dist_ID": 23.0, "District": "Nyaruguru", "label": "NU" }, "geometry": { "type": "Point", "coordinates": [ 29.51687590981324, -2.694843817911374 ] } },
{ "type": "Feature", "properties": { "Dist_ID": 24.0, "District": "Huye", "label": "HU" }, "geometry": { "type": "Point", "coordinates": [ 29.70879514096255, -2.524644526870363 ] } },
{ "type": "Feature", "properties": { "Dist_ID": 25.0, "District": "Nyamagabe", "label": "NY" }, "geometry": { "type": "Point", "coordinates": [ 29.46987877884381, -2.411356136853378 ] } },
{ "type": "Feature", "properties": { "Dist_ID": 26.0, "District": "Ruhango", "label": "RH" }, "geometry": { "type": "Point", "coordinates": [ 29.771760538880532, -2.193597672093332 ] } },
{ "type": "Feature", "properties": { "Dist_ID": 27.0, "District": "Muhanga", "label": "MH" }, "geometry": { "type": "Point", "coordinates": [ 29.722725388820038, -1.954890658589099 ] } },
{ "type": "Feature", "properties": { "Dist_ID": 28.0, "District": "Kamonyi", "label": "KM" }, "geometry": { "type": "Point", "coordinates": [ 29.902403213587132, -2.00944640840757 ] } },
{ "type": "Feature", "properties": { "Dist_ID": 31.0, "District": "Karongi", "label": "KG" }, "geometry": { "type": "Point", "coordinates": [ 29.431320702941694, -2.15670715938611 ] } },
{ "type": "Feature", "properties": { "Dist_ID": 32.0, "District": "Rutsiro", "label": "RT" }, "geometry": { "type": "Point", "coordinates": [ 29.399041747478208, -1.903725046332268 ] } },
{ "type": "Feature", "properties": { "Dist_ID": 33.0, "District": "Rubavu", "label": "RB" }, "geometry": { "type": "Point", "coordinates": [ 29.342693360841519, -1.653969285805644 ] } },
{ "type": "Feature", "properties": { "Dist_ID": 34.0, "District": "Nyabihu", "label": "NB" }, "geometry": { "type": "Point", "coordinates": [ 29.510515382265691, -1.647392126583854 ] } },
{ "type": "Feature", "properties": { "Dist_ID": 35.0, "District": "Ngororero", "label": "NR" }, "geometry": { "type": "Point", "coordinates": [ 29.569465025642547, -1.877844802695353 ] } },
{ "type": "Feature", "properties": { "Dist_ID": 36.0, "District": "Rusizi", "label": "RS" }, "geometry": { "type": "Point", "coordinates": [ 29.087430624835989, -2.565371571110321 ] } },
{ "type": "Feature", "properties": { "Dist_ID": 37.0, "District": "Nyamasheke", "label": "NS" }, "geometry": { "type": "Point", "coordinates": [ 29.166230345165676, -2.373508794586405 ] } },
{ "type": "Feature", "properties": { "Dist_ID": 41.0, "District": "Rulindo", "label": "RL" }, "geometry": { "type": "Point", "coordinates": [ 29.987226861658932, -1.739283534382792 ] } },
{ "type": "Feature", "properties": { "Dist_ID": 42.0, "District": "Gakenke", "label": "GK" }, "geometry": { "type": "Point", "coordinates": [ 29.784236646251728, -1.69853053107623 ] } },
{ "type": "Feature", "properties": { "Dist_ID": 43.0, "District": "Musanze", "label": "MS" }, "geometry": { "type": "Point", "coordinates": [ 29.606597444342533, -1.498535239052013 ] } },
{ "type": "Feature", "properties": { "Dist_ID": 44.0, "District": "Burera", "label": "BR" }, "geometry": { "type": "Point", "coordinates": [ 29.826544662240668, -1.466242927972125 ] } },
{ "type": "Feature", "properties": { "Dist_ID": 45.0, "District": "Gicumbi", "label": "GC" }, "geometry": { "type": "Point", "coordinates": [ 30.11387117232638, -1.621576593593219 ] } },
{ "type": "Feature", "properties": { "Dist_ID": 51.0, "District": "Rwamagana", "label": "RN" }, "geometry": { "type": "Point", "coordinates": [ 30.354735858337577, -1.975496458253225 ] } },
{ "type": "Feature", "properties": { "Dist_ID": 52.0, "District": "Nyagatare", "label": "NT" }, "geometry": { "type": "Point", "coordinates": [ 30.379925041691372, -1.338248803012167 ] } },
{ "type": "Feature", "properties": { "Dist_ID": 53.0, "District": "Gatsibo", "label": "GT" }, "geometry": { "type": "Point", "coordinates": [ 30.445391882903159, -1.619075881060724 ] } },
{ "type": "Feature", "properties": { "Dist_ID": 54.0, "District": "Kayonza", "label": "KZ" }, "geometry": { "type": "Point", "coordinates": [ 30.641978617577497, -1.845125542888985 ] } },
{ "type": "Feature", "properties": { "Dist_ID": 55.0, "District": "Kirehe", "label": "KH" }, "geometry": { "type": "Point", "coordinates": [ 30.71034474456776, -2.23439607388663 ] } },
{ "type": "Feature", "properties": { "Dist_ID": 56.0, "District": "Ngoma", "label": "NM" }, "geometry": { "type": "Point", "coordinates": [ 30.457188033991606, -2.182992908007721 ] } },
{ "type": "Feature", "properties": { "Dist_ID": 57.0, "District": "Bugesera", "label": "BG" }, "geometry": { "type": "Point", "coordinates": [ 30.150166200513866, -2.239765664471841 ] } }
]
}
